     2.11           OBSERVATION DATA    M (MIXED)           RINEX VERSION / TYPE
VRS3Net             Reference Data Shop 19-MAY-11 14:54     PGM / RUN BY / DATE 
GNIE                                                        MARKER NAME         
GNIE                                                        MARKER NUMBER       
Trimble Navigation  Trimble Navigation Limited              OBSERVER / AGENCY   
4636121831          TRIMBLE NETRS                           REC # / TYPE / VERS 
60177717            TRM41249.00     TZGD                    ANT # / TYPE        
  3706494.2669  1174619.7856  5039231.9817                  APPROX POSITION XYZ 
        0.0000        0.0000        0.0000                  ANTENNA: DELTA H/E/N
     1     1     0                                          WAVELENGTH FACT L1/2
     8    C1    L1    D1    S1    P2    L2    D2    S2      # / TYPES OF OBSERV 
    10.000                                                  INTERVAL            
     0                                                      RCV CLOCK OFFS APPL 
    15                                                      LEAP SECONDS        
2011  05    11    05    00       00.0000000     GPS         TIME OF FIRST OBS   
                                                            END OF HEADER       
 11 05 11  5  0  0.0000000  0 11G11G14G17G19G20G22G23G24G28G31G32    0.000000000
  20571204.114   -24660862.94617                        51.000    20571199.693  
 -18423975.78218                        40.000  
  22736815.339   -13882982.98916                        43.000    22736812.223  
  -9840325.42917                        30.000  
  23241209.362   -11267507.68616                        45.000    23241206.837  
  -8740616.52117                        30.000  
  24610538.371    -3735756.94615                        41.000    24610536.658  
  -2183200.90916                        22.000  
  21470596.349   -17564111.67416                        46.000    21470592.008  
 -13648219.79018                        36.000  
  25440410.090    -1107201.57314                        38.000    25440406.764  
   1071756.99615                        18.000  
  24340958.241    -7097960.49116                        46.000    24340955.572  
  -5490115.84417                        27.000  
  20201419.945   -26956813.82617                        52.000    20201417.180  
 -19456467.09018                        41.000  
  25211316.831    -2585441.41814                        38.000    25211314.362  
  -1293233.23215                        17.000  
  24009263.056    -7771210.26816                        43.000    24009261.591  
  -5852436.55816                        25.000  
  20507286.736   -24422368.71217                        51.000    20507283.909  
 -18991504.39818                        40.000  
 11 05 11  5  0 10.0000000  0 11G11G14G17G19G20G22G23G24G28G31G32    0.000000000
  20573996.612   -24646188.989 7                        51.000    20573992.239  
 -18412541.537 8                        39.000  
  22741594.090   -13857868.991 6                        44.000    22741591.142  
  -9820756.101 7                        30.000  
  23236795.849   -11290700.374 6                        44.000    23236793.538  
  -8758688.752 7                        30.000  
  24617712.269    -3698065.329 5                        41.000    24617709.232  
  -2153830.850 6                        22.000  
  21465951.441   -17588519.791 6                        47.000    21465947.539  
 -13667239.098 8                        36.000  
  25446738.072    -1073948.472 4                        39.000    25446734.526  
   1097668.458 5                        18.000  
  24333771.303    -7135728.918 6                        46.000    24333767.699  
  -5519545.772 7                        27.000  
  20201441.787   -26956699.541 7                        52.000    20201438.803  
 -19456378.037 8                        41.000  
  25215779.724    -2561984.598 4                        38.000    25215778.232  
  -1274955.163 5                        16.000  
  24004071.488    -7798493.837 6                        43.000    24004069.770  
  -5873696.424 6                        26.000  
  20506269.407   -24427714.239 7                        50.000    20506266.621  
 -18995669.737 8                        39.000  
 11 05 11  5  0 20.0000000  0 11G11G14G17G19G20G22G23G24G28G31G32    0.000000000
  20576798.959   -24631460.671 7                        51.000    20576795.152  
 -18401064.936 8                        40.000  
  22746381.464   -13832711.717 6                        44.000    22746378.245  
  -9801153.036 7                        29.000  
  23232392.190   -11313843.868 6                        44.000    23232389.093  
  -8776722.633 7                        30.000  
  24624884.540    -3660369.470 5                        41.000    24624882.334  
  -2124457.501 6                        22.000  
  21461313.663   -17612894.486 6                        46.000    21461309.206  
 -13686232.364 8                        36.000  
  25453066.509    -1040695.830 4                        39.000    25453062.284  
   1123579.586 5                        18.000  
  24326585.867    -7173488.893 6                        46.000    24326582.217  
  -5548969.142 6                        26.000  
  20201473.183   -26956535.124 8                        53.000    20201470.618  
 -19456249.929 8                        41.000  
  25220249.149    -2538500.958 3                        37.000    25220246.920  
  -1256656.272 5                        18.000  
  23998885.127    -7825745.809 5                        42.000    23998883.867  
  -5894931.679 6                        25.000  
  20505261.183   -24433015.266 7                        50.000    20505257.666  
 -18999800.407 8                        40.000  
 11 05 11  5  0 30.0000000  0 11G11G14G17G19G20G22G23G24G28G31G32    0.000000000
  20579612.365   -24616677.220 7                        51.000    20579607.831  
 -18389545.374 8                        39.000  
  22751177.580   -13807510.467 6                        44.000    22751174.220  
  -9781515.706 7                        30.000  
  23227997.751   -11336937.270 6                        43.000    23227995.041  
  -8794717.495 7                        30.000  
  24632059.280    -3622668.667 5                        41.000    24632057.363  
  -2095080.297 6                        22.000  
  21456681.376   -17637234.905 6                        47.000    21456677.739  
 -13705198.913 8                        36.000  
  25459393.742    -1007442.914 4                        39.000    25459390.407  
   1149490.928 6                        19.000  
  24319402.116    -7211239.603 6                        46.000    24319398.814  
  -5578385.248 6                        26.000  
  20201513.863   -26956319.665 7                        52.000    20201511.355  
 -19456082.040 8                        41.000  
  25224723.120    -2514989.803 3                        37.000    25224721.229  
  -1238335.847 5                        16.000  
  23993706.034    -7852965.247 5                        42.000    23993704.536  
  -5916141.618 6                        25.000  
  20504260.731   -24438270.916 7                        50.000    20504257.554  
 -19003895.714 8                        40.000  
 11 05 11  5  0 40.0000000  0 11G11G14G17G19G20G22G23G24G28G31G32    0.000000000
  20582436.092   -24601838.575 7                        51.000    20582431.665  
 -18377982.809 8                        40.000  
  22755980.898   -13782265.176 6                        44.000    22755978.094  
  -9761844.061 7                        30.000  
  23223612.459   -11359980.391 6                        45.000    23223609.878  
  -8812673.182 7                        30.000  
  24639234.058    -3584962.924 5                        40.000    24639231.828  
  -2065699.238 6                        22.000  
  21452056.475   -17661540.845 7                        48.000    21452052.281  
 -13724138.618 8                        36.000  
  25465721.612     -974189.503 3                        36.000    25465718.633  
   1175402.638 5                        16.000  
  24312220.255    -7248980.838 6                        45.000    24312216.356  
  -5607793.987 6                        26.000  
  20201564.820   -26956053.071 7                        52.000    20201562.153  
 -19455874.308 8                        41.000  
  25229202.315    -2491451.181 3                        37.000    25229200.716  
  -1219994.117 5                        16.000  
  23988532.471    -7880151.964 5                        42.000    23988530.870  
  -5937326.023 6                        25.000  
  20503269.252   -24443481.082 7                        51.000    20503266.012  
 -19007955.580 8                        40.000  
 11 05 11  5  0 50.0000000  0 11G11G14G17G19G20G22G23G24G28G31G32    0.000000000
  20585270.122   -24586944.766 7                        51.000    20585266.010  
 -18366377.252 8                        40.000  
  22760793.920   -13756975.922 6                        43.000    22760790.429  
  -9742138.166 7                        30.000  
  23219237.212   -11382973.125 6                        44.000    23219234.771  
  -8830589.594 7                        31.000  
  24646410.420    -3547252.253 5                        40.000    24646408.159  
  -2036314.364 6                        22.000  
  21447437.565   -17685812.393 7                        48.000    21447433.761  
 -13743051.504 8                        36.000  
  25472050.165     -940935.673 3                        37.000    25472045.711  
   1201314.701 5                        17.000  
  24305039.811    -7286712.575 6                        46.000    24305037.533  
  -5637195.329 6                        26.000  
  20201625.405   -26955735.327 7                        52.000    20201622.692  
 -19455626.717 8                        41.000  
  25233686.039    -2467885.112 4                        38.000    25233685.085  
  -1201630.935 5                        17.000  
  23983365.434    -7907305.905 5                        42.000    23983363.376  
  -5958484.890 6                        25.000  
  20502286.400   -24448645.802 7                        50.000    20502282.985  
 -19011980.034 8                        40.000  
 11 05 11  5  1  0.0000000  0 11G11G14G17G19G20G22G23G24G28G31G32    0.000000000
  20588115.022   -24571996.183 7                        51.000    20588110.262  
 -18354729.007 8                        40.000  
  22765614.208   -13731643.235 6                        45.000    22765610.915  
  -9722398.415 7                        29.000  
  23214871.447   -11405915.788 6                        45.000    23214868.916  
  -8848466.976 7                        31.000  
  24653587.105    -3509537.177 5                        40.000    24653585.260  
  -2006926.019 6                        22.000  
  21442825.222   -17710049.793 7                        48.000    21442820.850  
 -13761937.791 8                        37.000  
  25478377.998     -907681.804 4                        38.000    25478374.167  
   1227226.759 5                        18.000  
  24297861.788    -7324435.078 6                        46.000    24297858.479  
  -5666589.474 7                        27.000  
  20201695.654   -26955366.822 7                        52.000    20201692.692  
 -19455339.575 8                        41.000  
  25238176.052    -2444292.169 4                        38.000    25238174.563  
  -1183246.822 5                        16.000  
  23978204.107    -7934427.289 5                        42.000    23978202.101  
  -5979618.396 6                        26.000  
  20501312.358   -24453765.472 7                        51.000    20501309.172  
 -19015969.392 8                        40.000  
 11 05 11  5  1 10.0000000  0 11G11G14G17G19G20G22G23G24G28G31G32    0.000000000
  20590970.021   -24556992.450 7                        50.000    20590965.351  
 -18343037.794 8                        40.000  
  22770443.435   -13706266.738 6                        44.000    22770440.111  
  -9702624.539 7                        29.000  
  23210515.109   -11428807.923 6                        46.000    23210512.651  
  -8866305.004 7                        30.000  
  24660765.067    -3471817.408 5                        41.000    24660762.910  
  -1977534.066 6                        22.000  
  21438219.980   -17734252.653 7                        48.000    21438215.553  
 -13780797.149 8                        36.000  
  25484705.667     -874427.504 4                        38.000    25484702.796  
   1253139.206 5                        18.000  
  24290685.069    -7362147.821 6                        46.000    24290681.814  
  -5695975.995 7                        27.000  
  20201775.293   -26954947.093 7                        52.000    20201772.393  
 -19455012.507 8                        41.000  
  25242670.646    -2420671.876 4                        38.000    25242669.197  
  -1164841.402 5                        17.000  
  23973049.185    -7961515.632 6                        43.000    23973047.852  
  -6000726.168 6                        25.000  
  20500346.910   -24458839.647 7                        51.000    20500343.608  
 -19019923.294 8                        40.000  
 11 05 11  5  1 20.0000000  0 11G11G14G17G19G20G22G23G24G28G31G32    0.000000000
  20593835.769   -24541933.582 7                        51.000    20593831.489  
 -18331303.623 8                        40.000  
  22775280.772   -13680846.614 6                        43.000    22775277.249  
  -9682816.667 7                        30.000  
  23206168.635   -11451649.435 6                        46.000    23206165.924  
  -8884103.593 7                        31.000  
  24667943.423    -3434092.979 5                        41.000    24667941.775  
  -1948138.459 6                        22.000  
  21433620.725   -17758420.846 7                        48.000    21433616.418  
 -13799629.522 8                        37.000  
  25491034.133     -841172.795 4                        39.000    25491030.909  
   1279051.940 5                        18.000  
  24283510.627    -7399850.699 6                        45.000    24283506.803  
  -5725354.862 6                        26.000  
  20201865.265   -26954476.150 8                        53.000    20201862.082  
 -19454645.540 8                        41.000  
  25247170.785    -2397024.370 4                        38.000    25247169.224  
  -1146414.820 5                        16.000  
  23967901.395    -7988570.715 6                        43.000    23967899.095  
  -6021808.025 7                        27.000  
  20499389.979   -24463868.348 7                        51.000    20499386.455  
 -19023841.753 8                        40.000  
 11 05 11  5  1 30.0000000  0 11G11G14G17G19G20G22G23G24G28G31G32    0.000000000
  20596711.991   -24526820.043 7                        52.000    20596707.071  
 -18319526.850 8                        40.000  
  22780126.595   -13655383.213 6                        44.000    22780123.356  
  -9662975.071 7                        30.000  
  23201831.827   -11474440.638 6                        46.000    23201829.100  
  -8901862.963 7                        32.000  
  24675123.831    -3396364.329 5                        40.000    24675121.705  
  -1918739.528 6                        22.000  
  21429028.422   -17782554.734 7                        48.000    21429023.951  
 -13818435.148 8                        37.000  
  25497362.709     -807918.243 3                        37.000    25497359.372  
   1304964.556 5                        18.000  
  24276337.859    -7437544.015 6                        46.000    24276333.698  
  -5754726.275 6                        24.000  
  20201964.638   -26953954.298 8                        53.000    20201961.876  
 -19454238.901 8                        41.000  
  25251675.591    -2373350.115 4                        38.000    25251673.824  
  -1127967.370 5                        16.000  
  23962758.734    -8015592.888 5                        42.000    23962756.874  
  -6042864.230 6                        26.000  
  20498441.427   -24468851.909 7                        50.000    20498438.223  
 -19027725.053 8                        40.000  
 11 05 11  5  1 40.0000000  0 11G11G14G17G19G20G22G23G24G28G31G32    0.000000000
  20599598.535   -24511651.557 7                        51.000    20599593.936  
 -18307707.264 8                        40.000  
  22784980.124   -13629876.377 6                        43.000    22784976.814  
  -9643099.627 7                        30.000  
  23197504.430   -11497181.074 6                        45.000    23197501.501  
  -8919582.793 7                        31.000  
  24682304.032    -3358631.232 5                        40.000    24682302.245  
  -1889337.201 6                        22.000  
  21424442.345   -17806653.988 7                        48.000    21424438.031  
 -13837213.785 8                        37.000  
  25503689.326     -774663.380 3                        37.000    25503687.829  
   1330877.397 5                        16.000  
  24269166.740    -7475227.364 6                        45.000    24269163.524  
  -5784089.907 6                        25.000  
  20202073.200   -26953381.261 8                        53.000    20202070.460  
 -19453792.382 8                        41.000  
  25256186.828    -2349648.967 4                        38.000    25256184.429  
  -1109498.971 5                        16.000  
  23957622.997    -8042581.668 5                        42.000    23957621.359  
  -6063894.414 6                        26.000  
  20497502.011   -24473790.093 7                        52.000    20497498.323  
 -19031572.988 8                        40.000  
 11 05 11  5  1 50.0000000  0 11G11G14G17G19G20G22G23G24G28G31G32    0.000000000
  20602495.482   -24496428.051 7                        51.000    20602490.448  
 -18295844.800 8                        40.000  
  22789841.740   -13604326.169 6                        44.000    22789838.722  
  -9623190.383 7                        30.000  
  23193186.749   -11519870.737 6                        47.000    23193183.735  
  -8937263.042 7                        31.000  
  24689484.841    -3320893.841 5                        40.000    24689483.330  
  -1859931.477 6                        22.000  
  21419863.003   -17830718.528 7                        49.000    21419858.395  
 -13855965.381 8                        37.000  
  25510017.811     -741408.369 4                        38.000    25510016.198  
   1356790.427 5                        17.000  
  24261997.833    -7512900.783 6                        45.000    24261994.309  
  -5813445.805 6                        25.000  
  20202192.212   -26952756.989 8                        53.000    20202189.428  
 -19453305.942 8                        41.000  
  25260702.498    -2325921.033 4                        38.000    25260699.037  
  -1091009.658 5                        16.000  
  23952493.628    -8069537.008 6                        43.000    23952491.430  
  -6084898.549 6                        25.000  
  20496571.025   -24478682.894 7                        50.000    20496567.506  
 -19035385.561 8                        40.000  
 11 05 11  5  2  0.0000000  0 11G11G14G17G19G20G22G23G24G28G31G32    0.000000000
  20605402.880   -24481149.753 7                        52.000    20605398.045  
 -18283939.642 8                        40.000  
  22794712.641   -13578732.782 6                        44.000    22794708.923  
  -9603247.500 7                        29.000  
  23188878.970   -11542509.568 6                        47.000    23188875.940  
  -8954903.695 7                        32.000  
  24696666.799    -3283152.283 5                        41.000    24696665.167  
  -1830522.542 6                        21.000  
  21415289.953   -17854748.481 6                        47.000    21415286.543  
 -13874690.016 8                        38.000  
  25516346.341     -708153.272 4                        39.000    25516344.216  
   1382703.477 5                        18.000  
  24254830.361    -7550564.199 6                        45.000    24254827.507  
  -5842793.903 6                        26.000  
  20202320.629   -26952081.585 8                        53.000    20202317.962  
 -19452779.660 9                        42.000  
  25265222.526    -2302166.511 4                        38.000    25265219.668  
  -1072499.632 5                        16.000  
  23947370.487    -8096458.828 6                        43.000    23947368.131  
  -6105876.555 6                        25.000  
  20495648.612   -24483530.489 7                        51.000    20495645.046  
 -19039162.908 8                        40.000  
 11 05 11  5  2 10.0000000  0 11G11G14G17G19G20G22G23G24G28G31G32    0.000000000
  20608320.486   -24465816.917 7                        52.000    20608315.781  
 -18271991.982 8                        40.000  
  22799590.644   -13553096.494 6                        43.000    22799587.403  
  -9583271.193 7                        29.000  
  23184580.512   -11565097.724 6                        47.000    23184577.782  
  -8972504.842 7                        33.000  
  24703849.840    -3245406.866 5                        41.000    24703847.938  
  -1801110.563 6                        22.000  
  21410724.467   -17878743.882 7                        48.000    21410720.287  
 -13893387.723 8                        38.000  
  25522674.909     -674898.360 4                        38.000    25522672.594  
   1408616.368 5                        17.000  
  24247665.769    -7588217.721 6                        45.000    24247662.034  
  -5872134.300 7                        27.000  
  20202459.016   -26951355.190 7                        52.000    20202456.249  
 -19452213.641 8                        41.000  
  25269747.015    -2278385.700 4                        39.000    25269744.534  
  -1053969.150 5                        16.000  
  23942253.367    -8123347.313 6                        44.000    23942251.398  
  -6126828.587 6                        25.000  
  20494734.718   -24488333.030 7                        51.000    20494731.386  
 -19042905.147 8                        40.000  
 11 05 11  5  2 20.0000000  0 11G11G14G17G19G20G22G23G24G28G31G32    0.000000000
  20611248.718   -24450428.866 7                        51.000    20611243.820  
 -18260001.310 8                        40.000  
  22804476.841   -13527416.804 6                        44.000    22804474.434  
  -9563261.045 7                        30.000  
  23180291.928   -11587634.377 6                        46.000    23180289.198  
  -8990065.879 7                        31.000  
  24711033.103    -3207657.034 5                        40.000    24711031.297  
  -1771695.177 6                        22.000  
  21406164.232   -17902704.133 6                        46.000    21406160.756  
 -13912058.044 8                        38.000  
  25529002.794     -641642.993 4                        38.000    25529000.349  
   1434529.608 5                        17.000  
  24240502.155    -7625860.563 6                        45.000    24240499.462  
  -5901466.365 7                        27.000  
  20202607.145   -26950577.122 7                        52.000    20202604.521  
 -19451607.360 8                        41.000  
  25274277.739    -2254578.049 4                        39.000    25274275.145  
  -1035417.747 5                        18.000  
  23937143.293    -8150201.567 6                        43.000    23937141.211  
  -6147753.939 6                        25.000  
  20493829.286   -24493089.848 7                        51.000    20493825.924  
 -19046611.762 8                        40.000  
 11 05 11  5  2 30.0000000  0 11G11G14G17G19G20G22G23G24G28G31G32    0.000000000
  20614187.359   -24434986.141 7                        52.000    20614182.738  
 -18247968.023 8                        40.000  
  22809371.819   -13501694.248 6                        43.000    22809368.449  
  -9543217.514 7                        29.000  
  23176012.898   -11610120.089 6                        47.000    23176010.104  
  -9007587.208 7                        31.000  
  24718217.689    -3169903.400 5                        40.000    24718215.427  
  -1742276.809 6                        22.000  
  21401611.709   -17926629.777 6                        47.000    21401608.279  
 -13930701.386 8                        38.000  
  25535331.762     -608387.778 3                        36.000    25535328.619  
   1460442.743 5                        17.000  
  24233341.220    -7663493.263 6                        44.000    24233337.976  
  -5930790.522 6                        26.000  
  20202764.951   -26949747.975 7                        51.000    20202762.355  
 -19450961.274 9                        42.000  
  25278813.225    -2230744.135 4                        38.000    25278810.544  
  -1016845.865 5                        16.000  
  23932039.801    -8177022.093 6                        44.000    23932037.481  
  -6168653.040 7                        27.000  
  20492932.540   -24497801.512 7                        51.000    20492929.132  
 -19050283.192 8                        40.000  
 11 05 11  5  2 40.0000000  0 11G11G14G17G19G20G22G23G24G28G31G32    0.000000000
  20617136.339   -24419488.727 7                        52.000    20617132.011  
 -18235892.123 8                        40.000  
  22814275.109   -13475928.843 6                        43.000    22814271.857  
  -9523140.588 7                        30.000  
  23171744.463   -11632554.598 6                        47.000    23171741.480  
  -9025068.631 7                        32.000  
  24725402.834    -3132145.913 5                        41.000    24725400.971  
  -1712855.402 6                        23.000  
  21397065.383   -17950520.634 7                        48.000    21397061.677  
 -13949317.639 8                        38.000  
  25541660.012     -575132.557 2                        34.000    25541657.095  
   1486355.843 5                        15.000  
  24226181.693    -7701115.601 6                        44.000    24226178.394  
  -5960106.624 6                        25.000  
  20202932.336   -26948867.560 7                        52.000    20202929.706  
 -19450275.238 8                        41.000  
  25283353.640    -2206884.008 3                        37.000    25283351.133  
   -998253.585 5                        16.000  
  23926942.210    -8203808.555 6                        44.000    23926940.235  
  -6189525.574 6                        26.000  
  20492044.509   -24502467.815 7                        52.000    20492041.810  
 -19053919.266 8                        40.000  
 11 05 11  5  2 50.0000000  0 11G11G14G17G19G20G22G23G24G28G31G32    0.000000000
  20620095.963   -24403936.853 7                        51.000    20620091.357  
 -18223773.789 8                        40.000  
  22819186.010   -13450120.842 6                        44.000    22819182.767  
  -9503030.478 7                        28.000  
  23167484.311   -11654937.967 7                        48.000    23167481.539  
  -9042510.205 7                        32.000  
  24732589.349    -3094384.814 5                        41.000    24732586.921  
  -1683431.225 6                        23.000  
  21392525.489   -17974376.880 6                        47.000    21392522.030  
 -13967906.915 8                        37.000  
  25547987.228     -541877.520 2                        35.000    25547985.371  
   1512268.842 5                        14.000  
  24219024.655    -7738727.609 6                        45.000    24219020.599  
  -5989414.667 6                        26.000  
  20203109.466   -26947936.015 7                        52.000    20203106.820  
 -19449549.370 8                        41.000  
  25287898.961    -2182997.878 3                        36.000    25287896.558  
   -979641.027 5                        15.000  
  23921851.617    -8230561.093 6                        44.000    23921848.641  
  -6210371.674 6                        25.000  
  20491165.482   -24507089.017 7                        51.000    20491162.075  
 -19057520.207 8                        41.000  
 11 05 11  5  3  0.0000000  0 11G11G14G17G19G20G22G23G24G28G31G32    0.000000000
  20623065.349   -24388330.388 7                        52.000    20623061.058  
 -18211612.916 8                        40.000  
  22824105.312   -13424270.245 6                        44.000    22824102.330  
  -9482887.157 7                        28.000  
  23163235.155   -11677270.006 7                        48.000    23163232.064  
  -9059911.787 7                        32.000  
  24739775.122    -3056620.174 5                        40.000    24739773.257  
  -1654004.305 6                        23.000  
  21387992.556   -17998198.186 7                        48.000    21387989.103  
 -13986468.967 8                        37.000  
  25554316.354     -508622.611 3                        37.000    25554314.112  
   1538181.702 5                        16.000  
  24211869.033    -7776329.025 6                        45.000    24211865.410  
  -6018714.471 6                        26.000  
  20203296.561   -26946953.268 7                        52.000    20203294.131  
 -19448783.595 9                        42.000  
  25292448.817    -2159085.758 4                        38.000    25292446.624  
   -961008.164 5                        16.000  
  23916767.164    -8257279.492 6                        44.000    23916764.580  
  -6231191.153 6                        26.000  
  20490294.573   -24511665.043 7                        51.000    20490291.349  
 -19061085.948 8                        41.000  
 11 05 11  5  3 10.0000000  0 11G11G14G17G19G20G22G23G24G28G31G32    0.000000000
  20626045.930   -24372669.200 7                        51.000    20626041.252  
 -18199409.400 8                        40.000  
  22829032.954   -13398376.885 6                        43.000    22829029.316  
  -9462710.525 7                        29.000  
  23158995.671   -11699550.450 7                        48.000    23158991.980  
  -9077273.172 7                        32.000  
  24746963.010    -3018851.653 5                        40.000    24746960.482  
  -1624574.345 6                        22.000  
  21383466.156   -18021984.401 6                        47.000    21383462.122  
 -14005003.675 8                        37.000  
  25560644.124     -475367.665 3                        37.000    25560641.898  
   1564094.684 5                        18.000  
  24204716.132    -7813919.834 6                        44.000    24204712.659  
  -6048005.977 6                        26.000  
  20203493.491   -26945919.090 7                        52.000    20203490.926  
 -19447977.748 8                        41.000  
  25297004.733    -2135147.606 4                        38.000    25297002.246  
   -942355.061 5                        16.000  
  23911689.574    -8283963.440 6                        45.000    23911686.762  
  -6251983.821 6                        26.000  
  20489432.356   -24516195.790 7                        50.000    20489429.619  
 -19064616.399 8                        41.000  
 11 05 11  5  3 20.0000000  0 11G11G14G17G19G20G22G23G24G28G31G32    0.000000000
  20629036.167   -24356953.625 7                        51.000    20629032.303  
 -18187163.511 8                        39.000  
  22833967.851   -13372441.143 6                        43.000    22833964.664  
  -9442500.868 7                        29.000  
  23154765.565   -11721779.477 7                        48.000    23154762.187  
  -9094594.485 7                        32.000  
  24754149.886    -2981079.879 5                        41.000    24754147.757  
  -1595141.835 6                        21.000  
  21378946.188   -18045735.835 6                        46.000    21378942.632  
 -14023511.282 8                        37.000  
  25566973.380     -442112.946 3                        37.000    25566970.450  
   1590007.406 5                        16.000  
  24197564.827    -7851500.144 6                        44.000    24197560.952  
  -6077289.320 6                        25.000  
  20203700.023   -26944833.714 8                        53.000    20203697.201  
 -19447132.004 8                        41.000  
  25301565.137    -2111183.755 3                        37.000    25301562.401  
   -923681.940 5                        16.000  
  23906617.974    -8310613.104 6                        44.000    23906615.999  
  -6272749.776 6                        26.000  
  20488578.663   -24520681.458 7                        50.000    20488575.441  
 -19068111.719 8                        40.000  
 11 05 11  5  3 30.0000000  0 11G11G14G17G19G20G22G23G24G28G31G32    0.000000000
  20632037.038   -24341183.576 7                        52.000    20632032.931  
 -18174875.170 8                        40.000  
  22838911.968   -13346463.076 6                        44.000    22838908.445  
  -9422258.227 7                        29.000  
  23150545.356   -11743956.921 7                        48.000    23150541.911  
  -9111875.611 7                        33.000  
  24761338.251    -2943304.784 5                        41.000    24761335.874  
  -1565706.740 6                        22.000  
  21374433.115   -18069452.386 6                        47.000    21374429.416  
 -14041991.710 8                        37.000  
  25573300.712     -408858.472 2                        34.000    25573298.886  
   1615919.933 5                        15.000  
  24190415.533    -7889069.941 6                        44.000    24190412.117  
  -6106564.469 6                        26.000  
  20203916.361   -26943697.095 7                        52.000    20203913.576  
 -19446246.336 8                        41.000  
  25306129.901    -2087194.193 4                        38.000    25306128.035  
   -904988.762 5                        15.000  
  23901553.457    -8337228.228 6                        44.000    23901551.518  
  -6293488.791 7                        27.000  
  20487733.536   -24525122.002 7                        50.000    20487730.965  
 -19071571.879 8                        41.000  
 11 05 11  5  3 40.0000000  0 11G11G14G17G19G20G22G23G24G28G31G32    0.000000000
  20635048.524   -24325358.993 7                        51.000    20635044.397  
 -18162544.333 8                        40.000  
  22843863.547   -13320442.638 6                        43.000    22843859.892  
  -9401982.583 7                        29.000  
  23146335.037   -11766082.608 7                        49.000    23146330.834  
  -9129116.401 7                        32.000  
  24768528.529    -2905526.361 5                        41.000    24768525.636  
  -1536269.051 6                        23.000  
  21369926.751   -18093133.753 6                        47.000    21369922.975  
 -14060444.721 8                        37.000  
  25579629.168     -375604.124 3                        37.000    25579628.025  
   1641832.475 5                        16.000  
  24183267.667    -7926628.765 6                        44.000    24183264.584  
  -6135831.079 6                        26.000  
  20204142.344   -26942509.081 7                        52.000    20204139.550  
 -19445320.609 8                        41.000  
  25310699.594    -2063178.970 4                        38.000    25310697.760  
   -886275.657 5                        14.000  
  23896495.137    -8363808.684 6                        44.000    23896494.195  
  -6314200.794 7                        27.000  
  20486897.165   -24529517.245 7                        50.000    20486894.389  
 -19074996.743 8                        41.000  
 11 05 11  5  3 50.0000000  0 11G11G14G17G19G20G22G23G24G28G31G32    0.000000000
  20638070.101   -24309479.977 7                        51.000    20638066.393  
 -18150171.084 8                        40.000  
  22848822.551   -13294379.967 6                        43.000    22848818.925  
  -9381674.022 7                        28.000  
  23142134.280   -11788156.506 7                        48.000    23142130.936  
  -9146316.846 7                        32.000  
  24775716.868    -2867744.719 5                        40.000    24775715.635  
  -1506828.876 6                        22.000  
  21365427.085   -18116780.015 6                        47.000    21365423.401  
 -14078870.370 8                        38.000  
  25585956.984     -342349.978 3                        37.000    25585955.761  
   1667744.746 5                        16.000  
  24176123.204    -7964176.614 6                        45.000    24176119.841  
  -6165089.116 6                        26.000  
  20204377.976   -26941269.728 7                        52.000    20204375.141  
 -19444354.888 8                        41.000  
  25315274.753    -2039138.240 4                        38.000    25315273.146  
   -867542.652 5                        14.000  
  23891443.279    -8390354.364 6                        44.000    23891442.259  
  -6334885.705 6                        25.000  
  20486069.255   -24533867.234 7                        51.000    20486066.698  
 -19078386.346 8                        40.000  
 11 05 11  5  4  0.0000000  0 11G11G14G17G19G20G22G23G24G28G31G32    0.000000000
  20641102.266   -24293546.677 7                        51.000    20641098.220  
 -18137755.542 8                        40.000  
  22853790.125   -13268275.191 6                        43.000    22853786.942  
  -9361332.637 7                        28.000  
  23137943.825   -11810178.686 7                        48.000    23137939.894  
  -9163476.985 7                        32.000  
  24782907.196    -2829960.145 5                        41.000    24782905.334  
  -1477386.392 6                        22.000  
  21360934.011   -18140391.279 6                        46.000    21360930.382  
 -14097268.754 8                        38.000  
  25592284.194     -309096.249 3                        37.000    25592283.267  
   1693656.716 5                        16.000  
  24168979.761    -8001713.534 6                        44.000    24168976.364  
  -6194338.661 6                        25.000  
  20204623.899   -26939979.126 8                        53.000    20204620.816  
 -19443349.230 9                        42.000  
  25319854.289    -2015072.234 3                        37.000    25319852.794  
   -848789.870 5                        15.000  
  23886398.939    -8416865.306 6                        44.000    23886396.638  
  -6355543.534 6                        26.000  
  20485250.339   -24538172.178 7                        49.000    20485247.196  
 -19081740.856 8                        41.000  
 11 05 11  5  4 10.0000000  0 11G11G14G17G19G20G22G23G24G28G31G32    0.000000000
  20644144.480   -24277558.607 7                        51.000    20644140.581  
 -18125297.311 8                        40.000  
  22858765.873   -13242128.040 5                        42.000    22858762.638  
  -9340958.255 7                        29.000  
  23133763.051   -11832148.523 7                        48.000    23133758.729  
  -9180596.332 7                        32.000  
  24790098.497    -2792172.146 5                        40.000    24790096.001  
  -1447941.243 6                        23.000  
  21356447.819   -18163966.964 7                        48.000    21356444.101  
 -14115639.418 8                        38.000  
  25598612.841     -275842.421 2                        34.000    25598611.721  
   1719568.761 5                        16.000  
  24161838.972    -8039238.965 6                        44.000    24161834.880  
  -6223579.256 6                        25.000  
  20204879.122   -26938636.744 7                        52.000    20204876.364  
 -19442303.215 8                        41.000  
  25324438.649    -1990980.595 3                        37.000    25324438.080  
   -830017.286 5                        15.000  
  23881360.557    -8443340.842 6                        45.000    23881359.513  
  -6376173.800 6                        26.000  
  20484440.024   -24542431.579 7                        50.000    20484436.282  
 -19085059.865 8                        41.000  
 11 05 11  5  4 20.0000000  0 11G11G14G17G19G20G22G23G24G28G31G32    0.000000000
  20647197.628   -24261516.474 7                        51.000    20647193.009  
 -18112796.969 8                        40.000  
  22863749.450   -13215939.188 6                        43.000    22863746.366  
  -9320551.379 7                        29.000  
  23129592.192   -11854066.574 7                        48.000    23129588.043  
  -9197675.335 7                        32.000  
  24797289.748    -2754381.468 5                        41.000    24797287.527  
  -1418494.013 6                        22.000  
  21351967.911   -18187507.722 7                        48.000    21351964.339  
 -14133982.864 8                        38.000  
  25604941.594     -242589.064 2                        34.000    25604939.285  
   1745480.466 5                        15.000  
  24154699.909    -8076753.481 6                        45.000    24154696.829  
  -6252811.333 6                        26.000  
  20205144.587   -26937243.168 7                        52.000    20205141.800  
 -19441217.318 8                        41.000  
  25329027.743    -1966863.915 3                        37.000    25329026.557  
   -811225.035 5                        14.000  
  23876329.010    -8469781.506 6                        44.000    23876328.120  
  -6396776.875 7                        27.000  
  20483638.109   -24546646.139 7                        50.000    20483634.872  
 -19088343.930 8                        41.000  
 11 05 11  5  4 30.0000000  0 11G11G14G17G19G20G22G23G24G28G31G32    0.000000000
  20650260.500   -24245420.263 7                        51.000    20650256.428  
 -18100254.479 8                        40.000  
  22868740.851   -13189708.678 6                        43.000    22868738.119  
  -9300112.030 7                        28.000  
  23125431.089   -11875932.731 7                        48.000    23125427.169  
  -9214713.894 7                        32.000  
  24804481.993    -2716588.183 5                        41.000    24804479.722  
  -1389044.753 6                        23.000  
  21347495.111   -18211013.474 7                        48.000    21347491.637  
 -14152299.034 8                        38.000  
  25611268.757     -209336.201 3                        37.000    25611266.797  
   1771391.732 5                        17.000  
  24147563.137    -8114257.006 6                        45.000    24147559.962  
  -6282034.836 7                        27.000  
  20205419.720   -26935798.395 7                        52.000    20205416.430  
 -19440091.520 8                        41.000  
  25333622.647    -1942722.334 3                        36.000                  
                                                
  23871304.540    -8496187.108 6                        45.000    23871303.580  
  -6417352.627 7                        27.000  
  20482844.365   -24550815.754 7                        51.000    20482841.043  
 -19091592.984 8                        41.000  
 11 05 11  5  4 40.0000000  0 11G11G14G17G19G20G22G23G24G28G31G32    0.000000000
  20653333.754   -24229269.476 7                        51.000    20653329.577  
 -18087669.463 8                        40.000  
  22873740.312   -13163435.942 6                        44.000    22873736.858  
  -9279639.793 7                        29.000  
  23121280.008   -11897746.322 7                        48.000    23121276.227  
  -9231711.497 7                        32.000  
  24811674.206    -2678791.757 5                        40.000    24811672.128  
  -1359593.053 6                        22.000  
  21343028.789   -18234483.582 6                        47.000    21343025.112  
 -14170587.420 8                        38.000  
  25617597.005     -176083.432 3                        37.000    25617595.007  
   1797302.970 5                        17.000  
  24140429.102    -8151748.918 6                        45.000    24140425.374  
  -6311249.282 7                        27.000  
  20205704.196   -26934301.829 8                        53.000    20205701.369  
 -19438925.372 8                        41.000  
  25338221.343    -1918555.360 3                        36.000                  
                                                
  23866286.221    -8522557.031 6                        44.000    23866285.359  
  -6437900.596 7                        27.000  
  20482059.417   -24554939.874 7                        51.000    20482056.082  
 -19094806.583 8                        41.000  
 11 05 11  5  4 50.0000000  0 11G11G14G17G19G20G22G23G24G28G31G32    0.000000000
  20656417.232   -24213064.682 7                        51.000    20656413.541  
 -18075042.364 8                        40.000  
  22878747.880   -13137121.700 6                        45.000    22878744.893  
  -9259135.203 7                        28.000  
  23117138.541   -11919507.853 7                        48.000    23117134.982  
  -9248668.523 7                        32.000  
  24818867.367    -2640992.876 5                        40.000    24818864.738  
  -1330139.442 6                        23.000  
  21338569.263   -18257918.570 7                        48.000    21338565.700  
 -14188848.447 8                        37.000  
  25623925.461     -142831.286 4                        39.000    25623922.179  
   1823213.739 5                        18.000  
  24133297.348    -8189229.582 6                        45.000    24133293.022  
  -6340454.997 6                        26.000  
  20205998.884   -26932754.004 7                        52.000    20205995.846  
 -19437719.283 8                        41.000  
  25342823.901    -1894363.672 3                        36.000                  
                                                
  23861274.812    -8548891.683 6                        44.000    23861273.758  
  -6458421.064 7                        28.000  
  20481283.428   -24559019.090 7                        51.000    20481280.141  
 -19097985.189 8                        41.000  
 11 05 11  5  5  0.0000000  0 11G11G14G17G19G20G22G23G24G28G31G32    0.000000000
  20659511.908   -24196805.595 7                        52.000    20659507.641  
 -18062372.952 8                        40.000  
  22883763.410   -13110765.714 6                        44.000    22883759.795  
  -9238598.084 7                        28.000  
  23113007.293   -11941216.918 7                        48.000    23113003.966  
  -9265584.674 7                        32.000  
  24826060.454    -2603191.284 5                        41.000    24826058.223  
  -1300683.696 6                        22.000  
  21334116.229   -18281318.140 7                        48.000    21334112.574  
 -14207081.869 8                        38.000  
  25630252.065     -109579.408 3                        36.000    25630250.043  
   1849124.299 5                        18.000  
  24126166.644    -8226698.691 6                        45.000    24126162.817  
  -6369651.694 6                        25.000  
  20206303.009   -26931154.646 7                        52.000    20206300.383  
 -19436473.031 8                        41.000  
  25347432.802    -1870147.148 2                        35.000                  
                                                
  23856269.683    -8575190.533 6                        44.000    23856269.201  
  -6478913.647 7                        27.000  
  20480515.388   -24563053.134 7                        51.000    20480512.808  
 -19101128.598 8                        41.000  
 11 05 11  5  5 10.0000000  0 11G11G14G17G19G20G22G23G24G28G31G32    0.000000000
  20662616.025   -24180492.577 7                        51.000    20662612.054  
 -18049661.528 8                        40.000  
  22888786.989   -13084368.408 6                        44.000    22888783.416  
  -9218028.762 7                        28.000  
  23108886.441   -11962873.721 6                        47.000    23108882.830  
  -9282460.096 7                        32.000  
  24833254.072    -2565387.350 5                        40.000    24833252.391  
  -1271226.149 6                        22.000  
  21329670.711   -18304682.502 7                        48.000    21329666.497  
 -14225287.855 8                        38.000  
  25636579.414      -76328.315 2                        35.000    25636577.281  
   1875034.168 5                        16.000  
  24119038.391    -8264156.411 6                        44.000    24119034.676  
  -6398839.528 6                        25.000  
  20206617.290   -26929504.018 7                        52.000    20206614.540  
 -19435186.838 8                        41.000  
  25352045.165    -1845906.111 2                        35.000                  
                                                
  23851272.345    -8601454.027 6                        43.000    23851271.356  
  -6499378.668 7                        27.000  
  20479756.836   -24567042.250 7                        51.000    20479753.702  
 -19104236.999 8                        41.000  
 11 05 11  5  5 20.0000000  0 11G11G14G17G19G20G22G23G24G28G31G32    0.000000000
  20665730.520   -24164125.274 7                        51.000    20665726.198  
 -18036907.792 8                        40.000  
  22893817.411   -13057929.461 6                        44.000    22893814.777  
  -9197426.992 7                        29.000  
  23104775.012   -11984477.711 6                        47.000    23104771.802  
  -9299294.374 7                        31.000  
  24840448.473    -2527580.772 4                        39.000    24840446.399  
  -1241766.533 6                        22.000  
  21325231.238   -18328011.281 6                        47.000    21325227.150  
 -14243466.130 8                        38.000  
  25642906.425      -43077.303 1                        33.000                  
                                                
  24111913.135    -8301602.273 6                        44.000    24111908.840  
  -6428018.101 7                        27.000  
  20206941.040   -26927801.699 7                        51.000    20206938.384  
 -19433860.353 8                        41.000  
  25356662.712    -1821640.238 3                        36.000                  
                                                
  23846281.461    -8627681.556 6                        44.000    23846280.376  
  -6519815.682 7                        27.000  
  20479006.300   -24570986.109 7                        50.000    20479003.341  
 -19107310.139 8                        41.000  
 11 05 11  5  5 30.0000000  0 11G11G14G17G19G20G22G23G24G28G31G32    0.000000000
  20668855.536   -24147704.018 7                        52.000    20668851.135  
 -18024112.016 8                        41.000  
  22898856.808   -13031449.303 6                        43.000    22898853.718  
  -9176793.131 7                        28.000  
  23100673.701   -12006029.264 6                        46.000    23100670.663  
  -9316087.781 7                        31.000  
  24847643.198    -2489771.952 4                        39.000    24847641.500  
  -1212305.158 6                        22.000  
  21320798.871   -18351304.671 7                        49.000    21320795.105  
 -14261616.819 8                        38.000  
  25649234.688       -9826.913 4                        38.000                  
                                                
  24104789.427    -8339036.529 6                        45.000    24104786.037  
  -6457187.650 6                        26.000  
  20207274.862   -26926048.013 7                        52.000    20207272.199  
 -19432493.847 8                        41.000  
  25361285.208    -1797349.912 2                        34.000                  
                                                
  23841297.285    -8653873.284 6                        43.000    23841296.530  
  -6540224.789 7                        27.000  
  20478264.319   -24574884.964 7                        52.000    20478260.984  
 -19110348.205 8                        41.000  
 11 05 11  5  5 40.0000000  0 11G11G14G17G19G20G22G23G24G28G31G32    0.000000000
  20671990.742   -24131228.757 7                        51.000    20671986.768  
 -18011274.158 8                        41.000  
  22903903.999   -13004927.746 6                        44.000    22903900.500  
  -9156126.985 7                        28.000  
  23096582.295   -12027527.999 6                        46.000    23096579.800  
  -9332840.042 7                        32.000  
  24854838.748    -2451960.731 5                        40.000    24854836.566  
  -1182841.912 6                        22.000  
  21316372.605   -18374562.403 7                        49.000    21316369.311  
 -14279739.723 8                        38.000  
  25655561.682       23422.979 4                        39.000    25655556.247  
   1944664.33716                        21.000  
  24097668.081    -8376458.799 6                        45.000    24097664.402  
  -6486347.816 6                        26.000  
  20207618.329   -26924242.583 7                        52.000    20207615.790  
 -19431087.025 8                        41.000  
  25365912.938    -1773035.127 2                        35.000                  
                                                
  23836320.232    -8680028.828 6                        44.000    23836318.824  
  -6560605.700 7                        29.000  
  20477531.136   -24578738.595 7                        51.000    20477527.602  
 -19113351.036 8                        41.000  
 11 05 11  5  5 50.0000000  0 11G11G14G17G19G20G22G23G24G28G31G32    0.000000000
  20675135.980   -24114699.698 7                        51.000    20675131.717  
 -17998394.385 8                        40.000  
  22908958.110   -12978365.226 6                        43.000    22908955.046  
  -9135428.939 7                        28.000  
  23092501.516   -12048974.140 6                        46.000    23092498.841  
  -9349551.310 7                        31.000  
  24862034.918    -2414147.502 5                        40.000    24862032.529  
  -1153377.133 6                        23.000  
  21311953.610   -18397784.797 7                        48.000    21311949.589  
 -14297835.097 8                        39.000  
  25661889.783       56672.068 3                        37.000    25661884.000  
   1970572.755 6                        19.000  
  24090549.012    -8413869.345 6                        44.000    24090545.497  
  -6515498.898 6                        26.000  
  20207971.564   -26922385.781 7                        52.000    20207969.101  
 -19429640.170 8                        41.000  
  25370544.010    -1748696.197 2                        34.000                  
                                                
  23831348.898    -8706148.460 6                        44.000    23831348.615  
  -6580958.633 7                        27.000  
  20476806.244   -24582547.377 7                        50.000    20476802.941  
 -19116318.915 8                        41.000  
 11 05 11  5  6  0.0000000  0 11G11G14G17G19G20G22G23G24G28G31G32    0.000000000
  20678291.794   -24098116.434 7                        51.000    20678287.693  
 -17985472.369 8                        40.000  
  22914021.188   -12951761.470 6                        44.000    22914017.360  
  -9114698.752 7                        27.000  
  23088430.248   -12070367.215 6                        46.000    23088427.740  
  -9366221.254 7                        31.000  
  24869230.777    -2376332.044 4                        39.000    24869228.687  
  -1123910.600 6                        23.000  
  21307541.568   -18420971.541 7                        49.000    21307537.736  
 -14315902.679 8                        39.000  
  25668216.383       89920.815 3                        36.000    25668212.027  
   1996480.852 5                        18.000  
  24083432.720    -8451267.764 6                        44.000    24083428.694  
  -6544640.500 6                        26.000  
  20208335.001   -26920477.215 7                        51.000    20208332.204  
 -19428152.988 8                        41.000  
  25375180.402    -1724332.854 2                        34.000                  
                                                
  23826386.492    -8732231.672 6                        45.000    23826385.089  
  -6601283.188 7                        28.000  
  20476090.108   -24586310.931 7                        51.000    20476086.388  
 -19119251.561 8                        41.000  
 11 05 11  5  6 10.0000000  0 11G11G14G17G19G20G22G23G24G28G31G32    0.000000000
  20681457.527   -24081479.422 7                        51.000    20681453.130  
 -17972508.477 8                        40.000  
  22919091.600   -12925116.868 6                        44.000    22919088.051  
  -9093936.736 7                        28.000  
  23084369.498   -12091707.563 6                        46.000    23084366.946  
  -9382850.091 7                        31.000  
  24876426.898    -2338514.725 4                        39.000    24876425.371  
  -1094442.608 6                        22.000  
  21303135.592   -18444122.725 7                        49.000    21303132.066  
 -14333942.555 8                        39.000  
  25674543.059      123168.724 2                        35.000    25674539.038  
   2022388.272 5                        17.000  
  24076317.610    -8488654.248 6                        44.000    24076314.468  
  -6573772.814 6                        26.000  
  20208707.534   -26918517.215 7                        52.000    20208705.623  
 -19426625.718 8                        41.000  
  25379820.786    -1699945.491 2                        35.000                  
                                                
  23821429.747    -8758278.624 6                        44.000    23821428.269  
  -6621579.491 7                        27.000  
  20475382.198   -24590029.600 7                        50.000    20475378.754  
 -19122149.225 8                        40.000  
 11 05 11  5  6 20.0000000  0 11G11G14G17G19G20G22G23G24G28G31G32    0.000000000
  20684633.964   -24064788.722 7                        52.000    20684629.310  
 -17959502.740 8                        40.000  
  22924168.752   -12898431.476 6                        44.000    22924166.363  
  -9073142.949 7                        28.000  
