     2.11           OBSERVATION DATA    M (MIXED)           RINEX VERSION / TYPE
VRS3Net             Reference Data Shop 19-MAY-11 14:57     PGM / RUN BY / DATE 
WROC                                                        MARKER NAME         
WROC                                                        MARKER NUMBER       
Trimble Navigation  Trimble Navigation Limited              OBSERVER / AGENCY   
                    LEICA GRX1200GGPRO                      REC # / TYPE / VERS 
200042              LEIAT504GG      LEIS                    ANT # / TYPE        
  3835751.6368  1177249.7589  4941605.0673                  APPROX POSITION XYZ 
        0.0000        0.0000        0.0000                  ANTENNA: DELTA H/E/N
     1     1     0                                          WAVELENGTH FACT L1/2
     8    C1    L1    D1    S1    P2    L2    D2    S2      # / TYPES OF OBSERV 
    10.000                                                  INTERVAL            
     0                                                      RCV CLOCK OFFS APPL 
    15                                                      LEAP SECONDS        
2011  05    11    05    00       00.0000000     GPS         TIME OF FIRST OBS   
                                                            END OF HEADER       
 11 05 11  5  0  0.0000000  0 20G11G14G17G19G20G22G23G24G28G31G32R01 0.000000000
                                R07R08R09R10R16R22R23R24    
  20511491.504   107788639.89517                        51.250    20511489.544  
  83991154.40119                        49.250  
  22848453.148   120069445.00617                        47.250    22848451.808  
  93560603.61718                        38.750  
  23316462.986   122528834.47316                        46.000    23316461.746  
  95477016.34418                        39.250  
  24458415.538   128529836.30916                        44.000    24458415.118  
 100153109.77418                        37.250  
  21422361.718   112575293.50017                        50.500    21422359.998  
  87721006.05519                        45.500  
  25518807.050   134102230.37015                        40.000    25518806.690  
 104495241.06417                        30.250  
  24185211.740   127094142.78916                        45.750    24185210.360  
  99034386.80318                        36.500  
  20191426.746   106106692.68817                        51.500    20191426.406  
  82680553.24719                        49.750  
  25186102.272   132353846.31115                        40.250    25186101.392  
 103132852.44818                        33.500  
  23995929.160   126099486.21816                        44.750    23995929.900  
  98259360.12118                        37.250  
  20489921.724   107675293.00717                        51.250    20489920.664  
  83902837.08919                        49.000  
  21845129.936   116774753.58417                        48.000    21845136.836  
  90824835.63618                        38.750  
  20846589.524   111593470.09018                        49.250    20846589.844  
  86794935.75519                        44.000  
  19270615.252   103193281.86618                        51.500    19270618.632  
  80261485.69619                        50.250  
  22652737.692   120964389.09317                        46.250    22652746.992  
  94083465.45619                        42.750  
  24409011.380   130113769.30115                        40.250    24409025.620  
 101199664.31217                        31.000  
  22988205.708   122798894.37117                        45.250    22988213.868  
  95510292.93418                        41.000  
  23088134.908   123246033.42216                        44.500    23088143.608  
  95858070.57119                        41.500  
  19914858.968   106531071.71718                        51.750    19914866.248  
  82857521.47019                        49.250  
  20721591.064   110807663.69618                        50.750    20721596.424  
  86183774.99619                        47.500  
 11 05 11  5  0 10.0000000  0 20G11G14G17G19G20G22G23G24G28G31G32R01 0.000000000
                                R07R08R09R10R16R22R23R24    
  20514132.244   107802516.940 7                        51.250    20514130.284  
  84001967.673 9                        49.500  
  22853358.988   120095225.382 7                        47.250    22853357.668  
  93580692.208 8                        39.000  
  23311906.906   122504892.040 6                        46.250    23311905.606  
  95458359.909 8                        40.250  
  24465546.158   128567307.773 6                        44.000    24465545.758  
 100182308.268 8                        37.250  
  21417856.898   112551620.464 7                        50.500    21417855.178  
  87702559.533 9                        45.000  
  25525063.190   134135106.555 5                        41.000    25525062.810  
 104520858.872 8                        34.500  
  24178079.260   127056661.401 6                        45.500    24178077.860  
  99005180.543 8                        36.000  
  20191342.146   106106248.112 7                        51.500    20191341.826  
  82680206.822 9                        49.750  
  25190414.632   132376507.868 5                        39.750    25190413.792  
 103150510.850 8                        34.500  
  23990887.700   126072993.288 6                        44.250    23990888.440  
  98238716.316 8                        38.000  
  20489061.104   107670770.319 7                        51.250    20489060.024  
  83899312.916 9                        49.000  
  21839140.516   116742736.739 7                        47.500    21839147.436  
  90799933.662 8                        38.750  
  20851889.144   111621839.397 8                        49.500    20851889.484  
  86817000.766 9                        44.000  
  19270443.412   103192361.579 8                        51.250    19270446.792  
  80260769.915 9                        50.250  
  22648351.032   120940964.621 7                        46.000    22648360.352  
  94065246.449 9                        42.500  
  24401243.980   130072364.883 5                        39.250    24401258.220  
 101167460.921 7                        30.250  
  22990126.488   122809154.897 6                        45.000    22990134.668  
  95518273.312 8                        40.750  
  23096571.428   123291067.962 6                        44.000    23096580.128  
  95893097.373 9                        41.250  
  19918492.168   106550506.895 8                        51.500    19918499.448  
  82872637.710 9                        49.250  
  20717136.764   110783844.598 8                        50.750    20717142.104  
  86165249.030 9                        47.500  
 11 05 11  5  0 20.0000000  0 20G11G14G17G19G20G22G23G24G28G31G32R01 0.000000000
                                R07R08R09R10R16R22R23R24    
  20516783.564   107816449.621 7                        51.250    20516781.584  
  84012824.295 9                        49.250  
  22858273.048   120121048.929 6                        47.000    22858271.728  
  93600814.435 8                        38.500  
  23307360.146   122480998.752 6                        46.250    23307358.846  
  95439741.777 8                        40.000  
  24472678.118   128604786.287 6                        44.000    24472677.738  
 100211512.257 8                        35.500  
  21413358.678   112527982.045 7                        50.250    21413356.938  
  87684139.988 9                        45.250  
  25531319.350   134167982.858 5                        41.000    25531318.970  
 104546476.730 8                        34.000  
  24170948.940   127019191.327 6                        45.500    24170947.520  
  98975983.095 8                        35.000  
  20191267.106   106105853.753 7                        51.500    20191266.786  
  82679899.523 9                        49.750  
  25194732.512   132399198.334 5                        39.750    25194731.672  
 103168191.712 7                        33.000  
  23985852.620   126046533.982 6                        45.000    23985853.400  
  98218098.726 8                        37.500  
  20488209.004   107666292.566 7                        51.250    20488207.944  
  83895823.763 9                        49.000  
  21833157.216   116710752.531 7                        48.000    21833164.156  
  90775057.060 8                        38.500  
  20857194.504   111650239.290 7                        49.000    20857194.804  
  86839089.559 9                        43.750  
  19270282.412   103191499.421 8                        51.500    19270285.792  
  80260099.345 9                        50.250  
  22643977.592   120917610.834 7                        46.250    22643986.932  
  94047082.409 9                        42.500  
  24393477.840   130030967.274 4                        38.750    24393492.100  
 101135262.842 7                        30.750  
  22992063.508   122819502.299 7                        45.500    22992071.708  
  95526321.284 8                        40.500  
  23105011.208   123336119.841 6                        43.750    23105019.888  
  95928137.686 8                        41.000  
  19922141.088   106570026.138 8                        51.750    19922148.388  
  82887819.328 9                        49.250  
  20712696.464   110760100.310 8                        51.000    20712701.804  
  86146781.257 9                        47.500  
 11 05 11  5  0 30.0000000  0 20G11G14G17G19G20G22G23G24G28G31G32R01 0.000000000
                                R07R08R09R10R16R22R23R24    
  20519445.564   107830438.463 7                        51.250    20519443.584  
  84023724.679 9                        49.250  
  22863195.428   120146916.181 6                        47.000    22863194.108  
  93620970.718 8                        40.000  
  23302822.866   122457155.295 6                        46.750    23302821.566  
  95421162.454 8                        40.250  
  24479811.518   128642272.323 6                        44.000    24479811.158  
 100240722.121 8                        37.250  
  21408867.138   112504378.872 7                        50.250    21408865.398  
  87665747.916 9                        45.750  
  25537575.610   134200859.692 5                        40.750    25537575.250  
 104572095.018 8                        34.000  
  24163820.880   126981733.140 6                        45.000    24163819.460  
  98946794.920 8                        36.250  
  20191201.746   106105510.268 7                        51.500    20191201.426  
  82679631.867 9                        49.750  
  25199055.972   132421918.151 5                        40.250    25199055.172  
 103185895.455 7                        29.000  
  23980824.102   126020109.018 6                        44.500    23980824.882  
  98197507.849 8                        37.750  
  20487365.604   107661860.377 7                        51.250    20487364.524  
  83892370.109 9                        49.000  
  21827180.096   116678801.410 7                        47.750    21827187.076  
  90750206.203 8                        38.500  
  20862505.564   111678669.839 8                        49.250    20862505.904  
  86861202.198 9                        43.750  
  19270132.432   103190696.263 8                        51.500    19270135.812  
  80259474.669 9                        50.250  
  22639617.532   120894328.437 7                        46.250    22639626.892  
  94028973.922 9                        42.250  
  24385713.080   129989577.078 5                        40.000    24385727.340  
 101103070.521 7                        30.750  
  22994016.908   122829937.193 6                        45.000    22994025.128  
  95534437.298 8                        40.750  
  23113454.328   123381189.575 6                        43.250    23113463.008  
  95963191.891 9                        41.250  
  19925805.808   106589629.847 8                        51.750    19925813.108  
  82903066.647 9                        49.250  
  20708270.344   110736431.828 8                        50.500    20708275.684  
  86128372.423 9                        47.500  
 11 05 11  5  0 40.0000000  0 20G11G14G17G19G20G22G23G24G28G31G32R01 0.000000000
                                R07R08R09R10R16R22R23R24    
  20522117.684   107844480.438 7                        51.250    20522115.704  
  84034666.469 9                        49.250  
  22868125.548   120172824.060 6                        47.000    22868124.228  
  93641158.665 8                        39.250  
  23298294.506   122433358.757 6                        46.750    23298293.226  
  95402619.711 8                        39.750  
  24486945.778   128679762.826 6                        43.750    24486945.398  
 100269935.457 8                        36.750  
  21404381.778   112480808.041 7                        50.000    21404380.018  
  87647381.036 9                        45.750  
  25543831.470   134233734.293 5                        40.250    25543831.110  
 104597711.573 8                        35.500  
  24156694.520   126944283.931 6                        45.500    24156693.080  
  98917613.732 8                        36.500  
  20191145.526   106105214.704 7                        51.500    20191145.186  
  82679401.551 9                        49.750  
  25203384.412   132444664.231 5                        40.250    25203383.652  
 103203619.667 7                        26.750  
  23975801.562   125993715.531 6                        44.250    23975802.342  
  98176941.524 8                        38.500  
  20486530.304   107657470.841 7                        51.250    20486529.224  
  83888949.691 9                        49.250  
  21821208.636   116646880.630 7                        47.500    21821215.656  
  90725378.938 8                        38.750  
  20867821.804   111707128.174 7                        49.000    20867822.164  
  86883336.442 9                        43.750  
  19269992.872   103189948.926 8                        51.500    19269996.252  
  80258893.405 9                        50.250  
  22635270.292   120871114.533 7                        46.250    22635279.672  
  94010918.676 9                        42.000  
  24377949.220   129948191.530 5                        39.500    24377963.460  
 101070881.809 7                        29.500  
  22995986.108   122840456.448 7                        45.750    22995994.308  
  95542618.930 8                        40.750  
  23121900.228   123426274.133 6                        44.000    23121908.908  
  95998257.596 9                        41.500  
  19929485.768   106609315.087 8                        51.750    19929493.068  
  82918377.375 9                        49.250  
  20703857.824   110712836.114 8                        50.500    20703863.164  
  86110020.209 9                        47.500  
 11 05 11  5  0 50.0000000  0 20G11G14G17G19G20G22G23G24G28G31G32R01 0.000000000
                                R07R08R09R10R16R22R23R24    
  20524800.444   107858578.295 7                        51.250    20524798.464  
  84045651.802 9                        49.250  
  22873063.908   120198775.257 6                        47.000    22873062.588  
  93661380.365 8                        38.500  
  23293775.646   122409612.006 6                        46.500    23293774.366  
  95384115.747 8                        40.500  
  24494081.418   128717260.536 6                        43.250    24494081.018  
 100299154.401 8                        35.000  
  21399903.058   112457272.240 7                        50.250    21399901.298  
  87629041.455 9                        45.000  
  25550087.370   134266609.245 5                        40.250    25550087.010  
 104623328.385 8                        33.250  
  24149570.400   126906846.541 6                        46.000    24149568.980  
  98888441.742 8                        36.000  
  20191098.926   106104969.803 7                        51.500    20191098.586  
  82679210.719 9                        49.750  
  25207718.412   132467439.252 5                        40.000    25207717.612  
 103221366.420 7                        32.750  
  23970785.542   125967356.326 6                        44.500    23970786.342  
  98156401.912 8                        39.250  
  20485703.624   107653126.616 7                        51.250    20485702.544  
  83885564.581 9                        49.000  
  21815243.396   116614992.966 7                        47.750    21815250.396  
  90700577.426 8                        38.500  
  20873143.824   111735617.369 7                        49.000    20873144.184  
  86905494.700 9                        43.500  
  19269864.292   103189260.381 8                        51.500    19269867.672  
  80258357.872 9                        50.250  
  22630936.432   120847972.059 7                        46.500    22630945.812  
  93992918.984 9                        42.000  
  24370186.800   129906813.631 5                        40.750    24370200.960  
 101038699.034 7                        30.750  
  22997971.608   122851062.763 7                        45.250    22997979.808  
  95550868.287 9                        41.750  
  23130349.368   123471376.051 6                        43.750    23130358.088  
  96033336.826 8                        41.000  
  19933181.468   106629084.534 8                        51.750    19933188.788  
  82933753.595 9                        49.250  
  20699459.524   110689316.358 8                        50.750    20699464.824  
  86091727.072 9                        47.500  
 11 05 11  5  1  0.0000000  0 20G11G14G17G19G20G22G23G24G28G31G32R01 0.000000000
                                R07R08R09R10R16R22R23R24    
  20527493.884   107872732.341 7                        51.250    20527491.904  
  84056680.917 9                        49.250  
  22878010.548   120224769.997 6                        47.000    22878009.208  
  93681635.986 8                        38.000  
  23289266.346   122385915.462 6                        46.750    23289265.026  
  95365650.908 8                        39.250  
  24501218.458   128754765.656 6                        43.000    24501218.038  
 100328379.102 8                        37.750  
  21395431.118   112433771.942 7                        50.250    21395429.338  
  87610729.533 9                        45.000  
  25556343.450   134299484.960 4                        38.250    25556343.090  
 104648945.855 7                        29.750  
  24142448.620   126869421.410 6                        45.750    24142447.180  
  98859279.315 8                        34.500  
  20191062.046   106104775.913 7                        51.500    20191061.686  
  82679059.630 9                        49.750  
  25212057.972   132490243.497 5                        40.500    25212057.132  
 103239135.945 8                        33.250  
  23965776.142   125941031.872 6                        44.500    23965776.962  
  98135889.386 8                        39.250  
  20484885.624   107648828.031 7                        51.250    20484884.544  
  83882215.036 9                        49.000  
  21809284.416   116583138.819 7                        47.750    21809291.396  
  90675801.990 8                        38.750  
  20878471.564   111764137.213 7                        49.000    20878471.964  
  86927676.783 9                        43.500  
  19269746.732   103188630.788 8                        51.500    19269750.092  
  80257868.184 9                        50.250  
  22626616.052   120824901.551 7                        46.500    22626625.432  
  93974975.292 9                        42.000  
  24362425.900   129865443.947 5                        40.500    24362440.040  
 101006522.689 7                        31.250  
  22999973.488   122861756.522 6                        44.750    22999981.708  
  95559185.656 9                        41.750  
  23138801.828   123516495.566 6                        43.750    23138810.548  
  96068429.746 8                        41.000  
  19936892.948   106648938.393 8                        51.750    19936900.268  
  82949195.477 9                        49.250  
  20695075.424   110665872.634 8                        50.750    20695080.724  
  86073493.065 9                        47.500  
 11 05 11  5  1 10.0000000  0 20G11G14G17G19G20G22G23G24G28G31G32R01 0.000000000
                                R07R08R09R10R16R22R23R24    
  20530197.404   107886939.298 7                        51.250    20530195.404  
  84067751.263 9                        49.250  
  22882964.828   120250804.903 6                        47.000    22882963.488  
  93701922.916 8                        39.000  
  23284765.966   122362265.839 6                        47.000    23284764.626  
  95347222.624 8                        40.250  
  24508356.238   128792274.720 6                        43.500    24508355.818  
 100357606.913 8                        37.250  
  21390965.278   112410303.821 7                        50.250    21390963.518  
  87592442.695 9                        45.750  
  25562599.010   134332358.087 4                        39.000    25562598.650  
 104674561.203 8                        34.000  
  24135328.560   126832005.321 6                        45.750    24135327.160  
  98830123.966 8                        35.250  
  20191034.246   106104629.805 7                        51.500    20191033.886  
  82678945.773 9                        49.750  
  25216402.452   132513073.570 5                        40.250    25216401.612  
 103256925.627 7                        32.250  
  23960772.742   125914739.001 6                        44.750    23960773.582  
  98115401.459 8                        37.000  
  20484075.704   107644571.836 7                        51.250    20484074.624  
  83878898.518 9                        49.000  
  21803331.076   116551314.837 7                        47.500    21803338.036  
  90651050.006 8                        38.500  
  20883804.444   111792684.602 7                        49.000    20883804.864  
  86949880.309 9                        43.500  
  19269639.532   103188056.715 8                        51.500    19269642.872  
  80257421.690 9                        50.250  
  22622308.532   120801899.647 7                        46.750    22622317.872  
  93957084.923 9                        41.750  
  24354665.940   129824079.193 6                        41.250    24354680.020  
 100974350.151 7                        32.000  
  23001991.088   122872534.342 6                        45.000    23001999.388  
  95567568.397 9                        41.500  
  23147256.908   123561629.157 6                        44.000    23147265.628  
  96103533.598 9                        41.500  
  19940619.588   106668873.273 8                        51.750    19940626.888  
  82964700.365 9                        49.250  
  20690705.004   110642501.973 8                        50.750    20690710.284  
  86055315.882 9                        47.500  
 11 05 11  5  1 20.0000000  0 20G11G14G17G19G20G22G23G24G28G31G32R01 0.000000000
                                R07R08R09R10R16R22R23R24    
  20532911.464   107901201.756 7                        51.250    20532909.464  
  84078864.854 9                        49.500  
  22887927.208   120276882.462 6                        46.750    22887925.888  
  93722243.079 8                        39.000  
  23280275.066   122338665.927 6                        47.000    23280273.666  
  95328833.076 8                        39.750  
  24515495.278   128829790.345 6                        43.250    24515494.818  
 100386839.816 8                        37.750  
  21386506.078   112386870.630 7                        50.250    21386504.318  
  87574183.072 9                        45.500  
  25568854.590   134365231.292 4                        37.750    25568854.270  
 104700176.739 7                        28.250  
  24128210.760   126794601.069 6                        46.000    24128209.360  
  98800977.814 8                        36.500  
  20191016.046   106104534.111 7                        51.500    20191015.686  
  82678871.198 9                        49.750  
  25220752.332   132535932.073 5                        39.500    25220751.492  
 103274737.360 7                        32.000  
  23955775.882   125888480.493 6                        44.500    23955776.722  
  98094940.308 8                        37.750  
  20483274.344   107640360.640 7                        51.250    20483273.264  
  83875617.063 9                        49.250  
  21797383.876   116519523.797 7                        47.500    21797390.816  
  90626323.654 8                        38.500  
  20889142.964   111821262.179 7                        49.000    20889143.424  
  86972107.297 9                        43.250  
  19269543.212   103187540.859 8                        51.250    19269546.552  
  80257020.462 9                        50.250  
  22618014.372   120778969.276 7                        47.000    22618023.732  
  93939250.217 9                        42.000  
  24346907.420   129782722.188 5                        40.250    24346921.480  
 100942183.634 7                        31.250  
  23004024.908   122883398.790 6                        44.500    23004033.288  
  95576018.536 9                        41.250  
  23155715.128   123606779.501 6                        44.000    23155723.868  
  96138650.487 9                        41.750  
  19944361.828   106688891.768 8                        51.750    19944369.148  
  82980270.295 9                        49.250  
  20686348.744   110619207.034 8                        50.750    20686354.024  
  86037197.594 9                        47.500  
 11 05 11  5  1 30.0000000  0 20G11G14G17G19G20G22G23G24G28G31G32R01 0.000000000
                                R07R08R09R10R16R22R23R24    
  20535636.004   107915519.171 7                        51.250    20535633.984  
  84090021.273 9                        49.250  
  22892897.648   120303002.193 6                        47.000    22892896.308  
  93742596.096 8                        39.000  
  23275793.566   122315115.283 6                        46.500    23275792.126  
  95310481.927 8                        40.750  
  24522635.458   128867312.028 6                        43.250    24522634.978  
 100416077.447 8                        37.000  
  21382053.458   112363471.917 7                        50.250    21382051.698  
  87555950.307 9                        45.500  
  25575110.050   134398103.896 3                        36.250    25575109.730  
 104725791.798 6                        25.750  
  24121095.120   126757208.239 6                        45.500    24121093.740  
  98771840.552 8                        35.000  
  20191007.346   106104488.397 7                        51.250    20191006.986  
  82678835.575 9                        49.500  
  25225107.492   132558818.352 5                        39.250    25225106.692  
 103292570.889 7                        27.250  
  23950785.522   125862255.969 6                        44.750    23950786.362  
  98074505.657 8                        38.250  
  20482481.464   107636194.001 7                        51.250    20482480.384  
  83872370.335 9                        49.000  
  21791442.796   116487765.304 7                        47.250    21791449.696  
  90601622.600 8                        38.750  
  20894486.964   111849869.128 8                        49.250    20894487.444  
  86994357.123 9                        43.750  
  19269457.672   103187082.877 8                        51.500    19269461.012  
  80256664.255 9                        50.250  
  22613733.552   120756110.026 7                        46.500    22613742.912  
  93921470.825 9                        41.500  
  24339150.320   129741372.776 6                        42.500    24339164.380  
 100910023.043 7                        29.000  
  23006074.808   122894349.372 6                        43.500    23006083.288  
  95584535.653 8                        40.750  
  23164176.368   123651945.855 6                        44.250    23164185.108  
  96173779.820 9                        41.500  
  19948119.648   106708993.400 8                        51.750    19948126.928  
  82995904.885 9                        49.250  
  20682006.564   110595987.441 8                        51.000    20682011.824  
  86019137.910 9                        47.750  
 11 05 11  5  1 40.0000000  0 20G11G14G17G19G20G22G23G24G28G31G32R01 0.000000000
                                R07R08R09R10R16R22R23R24    
  20538370.864   107929890.857 7                        51.250    20538368.844  
  84101219.980 9                        49.500  
  22897875.948   120329163.355 6                        47.000    22897874.608  
  93762981.408 8                        38.500  
  23271321.306   122291613.380 6                        46.250    23271319.906  
  95292168.774 8                        41.000  
  24529776.658   128904838.998 6                        42.500    24529776.158  
 100445319.186 8                        36.000  
  21377607.258   112340107.065 7                        50.250    21377605.498  
  87537743.931 9                        45.750  
  25581365.330   134430975.438 3                        36.500    25581364.910  
 104751405.866 7                        27.500  
  24113981.560   126719826.271 6                        44.750    24113980.180  
  98742711.770 8                        36.000  
  20191008.046   106104492.015 7                        51.250    20191007.666  
  82678838.390 9                        49.500  
  25229467.812   132581731.715 5                        40.000    25229467.032  
 103310425.411 7                        31.000  
  23945801.502   125836064.906 6                        44.500    23945802.342  
  98054097.051 8                        38.750  
  20481696.924   107632071.221 7                        51.000    20481695.844  
  83869157.779 9                        49.250  
  21785507.616   116456038.475 7                        47.500    21785514.496  
  90576946.200 8                        38.750  
  20899836.384   111878505.118 8                        49.500    20899836.904  
  87016629.547 9                        43.500  
  19269382.772   103186681.780 8                        51.250    19269386.112  
  80256352.289 9                        50.250  
  22609465.952   120733321.411 7                        47.250    22609475.292  
  93903746.347 9                        41.250  
  24331394.540   129700030.381 6                        42.250    24331408.580  
 100877867.847 7                        30.500  
  23008140.668   122905385.325 6                        43.500    23008149.288  
  95593119.172 8                        40.500  
  23172640.488   123697127.673 6                        44.000    23172649.248  
  96208921.186 9                        41.500  
  19951892.828   106729177.313 8                        51.750    19951900.108  
  83011603.467 9                        49.250  
  20677678.444   110572842.953 8                        50.750    20677683.684  
  86001136.640 9                        47.500  
 11 05 11  5  1 50.0000000  0 20G11G14G17G19G20G22G23G24G28G31G32R01 0.000000000
                                R07R08R09R10R16R22R23R24    
  20541116.184   107944317.551 7                        51.500    20541114.144  
  84112461.551 9                        49.250  
  22902862.248   120355366.504 6                        47.000    22902860.908  
  93783399.432 8                        39.500  
  23266858.466   122268160.958 6                        46.750    23266857.106  
  95273894.164 9                        41.250  
  24536918.958   128942371.844 6                        43.000    24536918.478  
 100474565.500 8                        36.750  
  21373167.658   112316776.786 7                        50.500    21373165.898  
  87519564.503 9                        45.750  
  25587620.510   134463846.426 3                        36.000    25587619.990  
 104777019.637 7                        32.500  
  24106870.140   126682455.793 6                        45.250    24106868.780  
  98713591.938 8                        34.500  
  20191018.266   106104545.688 7                        51.500    20191017.886  
  82678880.209 9                        49.500  
  25233833.352   132604672.651 5                        39.500    25233832.612  
 103328301.463 8                        35.250  
  23940824.042   125809908.101 6                        44.750    23940824.842  
  98033715.146 8                        38.000  
  20480920.844   107627992.945 7                        51.250    20480919.784  
  83865979.900 9                        48.750  
  21779578.556   116424344.371 7                        47.750    21779585.416  
  90552295.237 8                        39.000  
  20905191.264   111907170.239 8                        49.250    20905191.804  
  87038924.629 9                        43.500  
  19269318.632   103186338.259 8                        51.250    19269321.952  
  80256085.109 9                        50.250  
  22605211.772   120710604.303 7                        47.250    22605221.072  
  93886077.498 9                        41.500  
  24323640.200   129658695.641 6                        42.000    24323654.240  
 100845718.667 7                        31.250  
  23010222.648   122916507.345 6                        44.500    23010231.368  
  95601769.632 8                        40.750  
  23181107.548   123742325.216 6                        43.250    23181116.328  
  96244074.777 9                        41.500  
  19955681.528   106749444.188 8                        51.750    19955688.788  
  83027366.582 9                        49.250  
  20673364.464   110549774.048 8                        51.000    20673369.684  
  85983194.160 9                        47.500  
 11 05 11  5  2  0.0000000  0 20G11G14G17G19G20G22G23G24G28G31G32R01 0.000000000
                                R07R08R09R10R16R22R23R24    
  20543872.144   107958800.108 7                        51.250    20543870.104  
  84123746.650 9                        49.250  
  22907856.708   120381612.461 6                        47.000    22907855.368  
  93803850.819 8                        38.750  
  23262405.246   122244759.069 6                        47.000    23262403.886  
  95255658.923 9                        41.500  
  24544062.538   128979911.376 6                        43.250    24544062.078  
 100503817.024 8                        37.750  
  21368734.798   112293482.036 7                        50.250    21368733.058  
  87501412.749 9                        45.500  
  25593875.730   134496717.705 2                        33.500    25593875.130  
 104802633.654 7                        27.750  
  24099761.160   126645097.946 6                        46.250    24099759.820  
  98684481.937 8                        35.000  
  20191038.186   106104650.321 7                        51.250    20191037.786  
  82678961.737 9                        49.750  
  25238204.312   132627641.996 5                        39.500    25238203.552  
 103346199.682 6                        24.000  
  23935853.262   125783786.536 6                        44.500    23935854.062  
  98013360.706 8                        38.500  
  20480153.404   107623960.018 7                        51.250    20480152.344  
  83862837.362 9                        49.000  
  21773655.736   116392683.670 7                        48.000    21773662.596  
  90527670.266 8                        39.250  
  20910551.804   111935865.611 8                        49.250    20910552.344  
  87061243.241 9                        43.250  
  19269265.432   103186053.373 8                        51.250    19269268.752  
  80255863.528 9                        50.250  
  22600971.152   120687959.680 7                        47.000    22600980.412  
  93868465.013 9                        41.250  
  24315887.560   129617369.926 6                        42.000    24315901.600  
 100813576.488 7                        30.750  
  23012320.908   122927716.232 6                        44.000    23012329.708  
  95610487.651 8                        40.750  
  23189577.728   123787539.364 6                        42.500    23189586.548  
  96279241.272 8                        41.000  
  19959485.868   106769794.746 8                        51.750    19959493.128  
  83043194.777 9                        49.250  
  20669064.844   110526782.021 8                        51.000    20669070.044  
  85965311.468 9                        47.750  
 11 05 11  5  2 10.0000000  0 20G11G14G17G19G20G22G23G24G28G31G32R01 0.000000000
                                R07R08R09R10R16R22R23R24    
  20546639.104   107973340.484 7                        51.250    20546637.044  
  84135076.801 9                        49.250  
  22912859.708   120407903.201 6                        47.000    22912858.328  
  93824337.102 8                        38.500  
  23257962.046   122221409.821 7                        47.250    23257960.706  
  95237464.711 9                        41.500  
  24551207.758   129017459.593 6                        43.500    24551207.338  
 100533075.340 8                        34.750  
  21364309.098   112270224.939 7                        50.250    21364307.358  
  87483290.338 9                        45.750  
  25600131.390   134529591.347 1                        32.000    25600127.750  
 104828243.42418                        34.250  
  24092654.980   126607754.844 6                        46.000    24092653.660  
  98655383.424 8                        35.500  
  20191068.206   106104808.058 7                        51.250    20191067.806  
  82679084.643 9                        49.500  
  25242581.052   132650641.739 4                        37.750    25242580.252  
 103364121.486 7                        28.750  
  23930889.582   125757702.409 6                        45.000    23930890.422  
  97993035.436 8                        38.250  
  20479395.004   107619974.560 7                        51.250    20479393.944  
  83859731.806 9                        49.000  
  21767739.616   116361058.767 7                        47.500    21767746.496  
  90503073.121 8                        39.250  
  20915918.344   111964593.069 8                        49.250    20915918.864  
  87083586.813 9                        43.250  
  19269223.572   103185829.167 8                        51.250    19269226.872  
  80255689.143 9                        50.250  
  22596744.552   120665389.898 7                        47.500    22596753.772  
  93850910.751 9                        41.250  
  24308136.980   129576055.261 6                        41.500    24308151.020  
 100781442.903 7                        31.500  
  23014435.808   122939014.056 6                        43.500    23014444.688  
  95619274.860 8                        41.000  
  23198051.408   123832772.299 6                        43.750    23198060.268  
  96314422.377 8                        40.250  
  19963306.248   106790231.090 8                        51.750    19963313.488  
  83059089.701 9                        49.250  
  20664780.044   110503869.142 8                        51.000    20664785.224  
  85947490.338 9                        47.750  
 11 05 11  5  2 20.0000000  0 20G11G14G17G19G20G22G23G24G28G31G32R01 0.000000000
                                R07R08R09R10R16R22R23R24    
  20549415.544   107987930.609 7                        51.250    20549413.464  
  84146445.723 9                        49.250  
  22917869.648   120434230.532 7                        47.250    22917868.248  
  93844851.889 8                        39.000  
  23253527.346   122198105.260 6                        47.000    23253526.006  
  95219305.304 8                        40.500  
  24558353.078   129055008.256 6                        43.500    24558352.638  
 100562333.989 8                        36.500  
  21359889.038   112246997.396 7                        50.500    21359887.298  
  87465190.962 9                        45.500  
  25606385.930   134562459.166 1                        32.250                  
                                                
  24085550.120   126570418.479 6                        45.500    24085548.800  
  98626290.151 8                        35.000  
  20191106.786   106105010.782 7                        51.250    20191106.386  
  82679242.608 9                        49.500  
  25246961.972   132673663.623 4                        38.500    25246961.172  
 103382060.621 8                        33.250  
  23925931.522   125731647.746 6                        44.500    23925932.362  
  97972733.132 8                        38.250  
  20478644.084   107616028.433 7                        51.250    20478643.024  
  83856656.902 9                        49.250  
  21761828.656   116329461.411 7                        47.250    21761835.556  
  90478497.421 8                        38.750  
  20921289.404   111993344.827 8                        49.250    20921289.924  
  87105949.284 9                        43.250  
  19269191.492   103185657.447 8                        51.500    19269194.812  
  80255555.581 9                        50.250  
  22592530.392   120642886.610 7                        47.000    22592539.612  
  93833408.218 9                        41.500  
  24300387.040   129534743.906 6                        42.500    24300401.080  
 100749311.876 7                        31.500  
  23016565.848   122950392.535 6                        44.000    23016574.748  
  95628124.761 8                        40.750  
  23206527.008   123878015.342 6                        44.000    23206535.868  
  96349611.377 8                        40.250  
  19967141.108   106810744.938 8                        51.750    19967148.348  
  83075044.902 9                        49.250  
  20660508.484   110481027.105 8                        51.000    20660513.624  
  85929724.311 9                        47.750  
 11 05 11  5  2 30.0000000  0 20G11G14G17G19G20G22G23G24G28G31G32R01 0.000000000
                                R07R08R09R10R16R22R23R24    
  20552202.324   108002575.137 7                        51.250    20552200.244  
  84157857.033 9                        49.250  
  22922887.448   120460599.033 7                        47.250    22922886.028  
  93865398.765 8                        39.000  
  23249102.046   122174850.060 6                        46.750    23249100.686  
  95201184.375 8                        40.250  
  24565499.358   129092561.998 6                        43.250    24565498.918  
 100591596.578 8                        36.500  
  21355475.478   112223804.073 7                        50.250    21355473.758  
  87447118.247 9                        45.750  
  25612640.290   134595326.068 1                        31.750                  
                                                
  24078447.420   126533093.533 6                        44.750    24078446.100  
  98597205.812 8                        36.500  
  20191154.826   106105263.150 7                        51.500    20191154.406  
  82679439.248 9                        49.500  
  25251347.992   132696712.311 4                        38.500    25251347.152  
 103400020.635 8                        34.500  
  23920979.982   125705627.327 6                        45.000    23920980.822  
  97952457.512 8                        36.500  
  20477901.524   107612126.317 7                        51.000    20477900.464  
  83853616.290 9                        49.250  
  21755923.756   116297896.382 7                        47.500    21755930.636  
  90453946.844 8                        39.000  
  20926665.844   112022125.286 8                        49.500    20926666.324  
  87128334.066 9                        43.250  
  19269170.072   103185542.725 8                        51.250    19269173.392  
  80255466.355 9                        50.250  
  22588329.672   120620455.074 7                        46.750    22588338.872  
  93815961.493 9                        41.500  
  24292638.540   129493440.321 6                        41.500    24292652.580  
 100717186.946 7                        31.750  
  23018711.868   122961856.482 7                        45.750    23018720.828  
  95637041.171 8                        40.750  
  23215005.388   123923273.324 6                        44.000    23215014.248  
  96384811.980 8                        41.000  
  19970991.328   106831340.915 8                        51.750    19970998.568  
  83091063.982 9                        49.250  
  20656251.104   110458260.946 8                        51.000    20656256.244  
  85912017.301 9                        47.750  
 11 05 11  5  2 40.0000000  0 19G11G14G17G19G20G23G24G28G31G32R01R07 0.000000000
                                R08R09R10R16R22R23R24       
  20554999.984   108017276.863 7                        51.250    20554997.904  
  84169312.912 9                        49.250  
  22927913.588   120487011.475 6                        47.000    22927912.188  
  93885979.872 8                        38.500  
  23244686.706   122151647.223 6                        46.750    23244685.346  
  95183104.253 8                        40.750  
  24572647.138   129130123.620 6                        43.750    24572646.698  
 100620865.323 8                        35.750  
  21351068.978   112200647.823 7                        50.250    21351067.278  
  87429074.424 9                        45.750  
  24071347.420   126495783.031 6                        46.000    24071346.180  
  98568132.720 8                        36.750  
  20191212.866   106105568.094 7                        51.500    20191212.446  
  82679676.869 9                        49.500  
  25255739.612   132719790.554 5                        39.500    25255738.812  
 103418003.647 7                        31.000  
  23916035.542   125679644.156 6                        44.250    23916036.362  
  97932210.912 8                        37.750  
  20477167.924   107608271.163 7                        51.250    20477166.864  
  83850612.277 9                        49.000  
  21750025.416   116266366.526 7                        47.500    21750032.296  
  90429423.632 8                        39.250  
  20932048.084   112050936.867 8                        49.250    20932048.544  
  87150743.072 9                        43.250  
  19269159.872   103185488.021 8                        51.500    19269163.172  
  80255423.806 9                        50.250  
  22584142.912   120598098.180 7                        47.750    22584152.112  
  93798572.804 9                        41.500  
  24284892.160   129452147.964 6                        41.250    24284906.180  
 100685070.681 7                        31.750  
  23020874.428   122973408.578 6                        44.500    23020883.408  
  95646026.128 8                        40.750  
  23223487.088   123968549.041 6                        44.250    23223495.948  
  96420026.368 9                        41.500  
  19974857.428   106852021.828 8                        51.750    19974864.648  
  83107149.122 9                        49.000  
  20652008.444   110435573.515 8                        50.750    20652013.584  
  85894371.517 9                        47.750  
 11 05 11  5  2 50.0000000  0 19G11G14G17G19G20G23G24G28G31G32R01R07 0.000000000
                                R08R09R10R16R22R23R24       
  20557807.644   108032031.145 7                        51.250    20557805.564  
  84180809.745 9                        49.500  
  22932947.228   120513463.213 7                        47.250    22932945.808  
  93906591.591 8                        38.750  
  23240280.466   122128492.328 6                        46.750    23240279.106  
  95165061.480 9                        41.250  
  24579795.518   129167688.405 6                        43.500    24579795.078  
 100650136.539 8                        35.500  
  21346668.678   112177524.158 7                        50.250    21346666.978  
  87411055.982 9                        45.750  
  24064249.360   126458482.498 6                        45.500    24064248.140  
  98539067.380 8                        36.500  
  20191280.026   106105921.051 7                        51.250    20191279.606  
  82679951.890 9                        49.750  
  25260135.992   132742893.602 5                        40.000    25260135.212  
 103436006.012 7                        33.000  
  23911097.322   125653693.782 6                        45.000    23911098.142  
  97911989.841 8                        37.250  
  20476442.344   107604458.251 7                        51.250    20476441.284  
  83847641.177 9                        49.250  
  21744132.816   116234867.269 7                        47.000    21744139.676  
  90404924.237 8                        39.000  
  20937435.344   112079775.247 8                        49.250    20937435.784  
  87173172.910 9                        43.250  
  19269160.012   103185488.744 8                        51.500    19269163.312  
  80255424.368 9                        50.250  
  22579969.272   120575811.266 7                        47.000    22579978.452  
  93781238.569 9                        41.250  
  24277147.040   129410862.255 6                        42.000    24277161.020  
 100652959.628 7                        32.000  
  23023052.668   122985044.265 7                        45.500    23023061.648  
  95655076.096 9                        41.250  
  23231971.188   124013837.596 6                        44.500    23231980.068  
  96455250.758 9                        41.250  
  19978738.528   106872782.946 8                        51.750    19978745.748  
  83123296.650 9                        49.000  
  20647779.684   110412960.424 8                        51.000    20647784.824  
  85876783.566 9                        47.750  
 11 05 11  5  3  0.0000000  0 19G11G14G17G19G20G23G24G28G31G32R01R07 0.000000000
                                R08R09R10R16R22R23R24       
  20560625.744   108046840.374 7                        51.250    20560623.664  
  84192349.393 9                        49.250  
  22937988.748   120539956.490 6                        47.000    22937987.328  
  93927235.695 8                        39.500  
  23235883.826   122105387.727 7                        47.750    23235882.426  
  95147057.892 8                        40.250  
  24586944.936   129205258.619 6                        43.750    24586944.516  
 100679411.988 8                        37.000  
  21342275.058   112154435.587 7                        50.500    21342273.358  
  87393064.892 9                        45.500  
  24057153.660   126421194.482 6                        45.000    24057152.480  
  98510011.791 8                        37.000  
  20191356.766   106106324.367 7                        51.500    20191356.366  
  82680266.160 9                        49.500  
  25264537.512   132766023.820 4                        37.250    25264536.792  
 103454029.560 7                        28.250  
  23906165.802   125627778.619 6                        45.250    23906166.622  
  97891796.257 8                        37.750  
  20475725.264   107600689.959 7                        51.000    20475724.204  
  83844704.844 9                        49.000  
  21738246.396   116203401.237 7                        47.500    21738253.296  
  90380450.663 8                        39.000  
  20942828.004   112108642.503 8                        49.250    20942828.424  
  87195625.202 9                        43.250  
  19269170.912   103185547.054 8                        51.500    19269174.192  
  80255469.721 9                        50.250  
  22575809.232   120553597.050 7                        47.250    22575818.392  
  93763960.851 9                        41.250  
  24269403.620   129369585.709 6                        41.250    24269417.600  
 100620855.670 8                        33.250  
  23025246.988   122996765.749 6                        44.250    23025255.968  
  95664192.806 8                        41.000  
  23240458.148   124059141.306 6                        43.750    23240467.008  
  96490486.928 9                        41.250  
  19982635.048   106893626.610 8                        51.750    19982642.248  
  83139508.370 9                        49.000  
  20643565.284   110390424.176 8                        51.000    20643570.424  
  85859255.371 9                        48.000  
 11 05 11  5  3 10.0000000  0 20G11G14G17G19G20G22G23G24G28G31G32R01 0.000000000
                                R07R08R09R10R16R22R23R24    
  20563454.224   108061704.024 7                        51.250    20563452.144  
  84203931.448 9                        49.250  
  22943038.108   120566490.822 7                        47.250    22943036.688  
  93947911.780 8                        38.250  
  23231496.686   122082333.103 7                        47.500    23231495.246  
  95129093.236 9                        41.250  
  24594095.316   129242833.833 6                        43.500    24594094.896  
 100708691.343 8                        35.500  
  21337888.018   112131381.602 7                        50.250    21337886.318  
  87375100.762 9                        45.750  
  25637656.810   134726795.99911                        31.750                  
                                                
  24050060.220   126383918.248 6                        44.000    24050059.060  
  98480965.396 8                        36.500  
  20191443.026   106106777.619 7                        51.250    20191442.626  
  82680619.340 9                        49.500  
  25268944.072   132789180.504 5                        39.250    25268943.432  
 103472073.740 7                        28.500  
  23901240.922   125601898.311 6                        44.750    23901241.722  
  97871629.799 8                        37.750  
  20475016.544   107596965.708 7                        51.250    20475015.504  
  83841802.828 9                        49.250  
  21732366.116   116171967.845 7                        47.500    21732372.996  
  90356002.473 8                        39.250  
  20948226.144   112137539.008 8                        49.250    20948226.524  
  87218100.266 9                        43.250  
  19269192.472   103185662.480 8                        51.250    19269195.752  
  80255559.492 9                        50.250  
  22571662.712   120531454.974 7                        47.000    22571671.852  
  93746739.262 8                        41.000  
  24261661.880   129328317.961 6                        41.750    24261675.840  
 100588758.599 7                        32.250  
  23027457.268   123008572.484 7                        45.500    23027466.228  
  95673375.795 8                        40.750  
  23248947.808   124104459.559 6                        43.250    23248956.688  
  96525734.381 9                        41.250  
  19986546.928   106914552.375 8                        51.750    19986554.108  
  83155783.955 9                        49.000  
  20639365.184   110367964.343 8                        51.000    20639370.304  
  85841786.604 9                        48.000  
 11 05 11  5  3 20.0000000  0 20G11G14G17G19G20G22G23G24G28G31G32R01 0.000000000
                                R07R08R09R10R16R22R23R24    
  20566293.044   108076622.084 7                        51.250    20566290.964  
  84215555.898 9                        49.250  
  22948095.248   120593066.123 7                        47.250    22948093.828  
  93968619.800 8                        38.750  
  23227119.106   122059328.571 7                        47.500    23227117.646  
  95111167.636 8                        41.000  
  24601246.596   129280413.879 6                        42.750    24601246.176  
 100737974.428 8                        36.000  
  21333507.558   112108362.248 7                        50.500    21333505.858  
  87357163.598 9                        46.000  
  25643910.530   134759659.364 1                        32.250                  
                                                
  24042969.040   126346654.098 6                        45.250    24042967.900  
  98451928.393 8                        36.000  
  20191538.786   106107280.865 7                        51.500    20191538.386  
  82681011.475 9                        49.500  
  25273355.672   132812363.692 5                        39.250    25273355.132  
 103490138.590 7                        30.000  
  23896322.702   125576053.066 6                        44.750    23896323.522  
  97851490.683 8                        37.500  
  20474316.244   107593285.617 7                        51.250    20474315.204  
  83838935.227 9                        49.000  
  21726491.936   116140567.150 7                        47.250    21726498.856  
  90331579.714 8                        39.000  
  20953629.504   112166463.462 8                        49.250    20953629.844  
  87240597.046 9                        43.250  
  19269224.732   103185835.228 8                        51.500    19269228.012  
  80255693.850 9                        50.250  
  22567529.772   120509385.460 7                        47.500    22567538.912  
  93729574.088 9                        41.250  
  24253921.860   129287059.334 6                        41.250    24253935.780  
 100556668.568 7                        31.750  
  23029683.548   123020464.496 6                        45.000    23029692.468  
  95682625.169 8                        41.000  
  23257440.208   124149792.415 6                        43.000    23257449.108  
  96560993.205 8                        40.750  
  19990474.108   106935559.995 8                        51.500    19990481.268  
  83172123.194 9                        49.000  
  20635179.384   110345581.054 8                        50.750    20635184.524  
  85824377.387 9                        48.000  
 11 05 11  5  3 30.0000000  0 20G11G14G17G19G20G22G23G24G28G31G32R01 0.000000000
                                R07R08R09R10R16R22R23R24    
  20569142.344   108091595.243 7                        51.500    20569140.264  
  84227223.287 9                        49.250  
  22953160.268   120619682.956 6                        47.000    22953158.848  
  93989360.169 8                        37.500  
  23222751.206   122036374.852 6                        47.000    23222749.706  
  95093281.617 8                        40.500  
